[{"name":"Scotland","lat":56.49,"lon":-4.2,"days":10637,"matches":106,"reigns":21,"crest":"🏴󠁧󠁢󠁳󠁣󠁴󠁿"},{"name":"England","lat":52.36,"lon":-1.17,"days":5516,"matches":87,"reigns":22,"crest":"🏴󠁧󠁢󠁥󠁮󠁧󠁿"},{"name":"Netherlands","lat":52.13,"lon":5.29,"days":2615,"matches":77,"reigns":12,"crest":"🇳🇱"},{"name":"Argentina","lat":-38.42,"lon":-63.62,"days":2388,"matches":86,"reigns":17,"crest":"🇦🇷"},{"name":"France","lat":46.23,"lon":2.21,"days":1443,"matches":44,"reigns":8,"crest":"🇫🇷"},{"name":"Brazil","lat":-14.24,"lon":-51.93,"days":1375,"matches":46,"reigns":8,"crest":"🇧🇷"},{"name":"Uruguay","lat":-32.52,"lon":-55.77,"days":1069,"matches":36,"reigns":10,"crest":"🇺🇾"},{"name":"Spain","lat":40.46,"lon":-3.75,"days":966,"matches":25,"reigns":6,"crest":"🇪🇸"},{"name":"Italy","lat":41.87,"lon":12.57,"days":959,"matches":52,"reigns":10,"crest":"🇮🇹"},{"name":"Chile","lat":-35.68,"lon":-71.54,"days":916,"matches":24,"reigns":8,"crest":"🇨🇱"},{"name":"Soviet Union","lat":56.0,"lon":50.0,"days":884,"matches":30,"reigns":4,"crest":"🇷🇺"},{"name":"Austria","lat":47.52,"lon":14.55,"days":743,"matches":16,"reigns":2,"crest":"🇦🇹"},{"name":"Germany","lat":51.17,"lon":10.45,"days":693,"matches":27,"reigns":6,"crest":"🇩🇪"},{"name":"Sweden","lat":60.13,"lon":18.64,"days":617,"matches":32,"reigns":9,"crest":"🇸🇪"},{"name":"Greece","lat":39.07,"lon":21.82,"days":502,"matches":11,"reigns":2,"crest":"🇬🇷"},{"name":"Russia","lat":55.75,"lon":37.62,"days":494,"matches":20,"reigns":2,"crest":"🇷🇺"},{"name":"Japan","lat":36.2,"lon":138.25,"days":399,"matches":16,"reigns":1,"crest":"🇯🇵"},{"name":"North Korea","lat":40.34,"lon":127.51,"days":390,"matches":13,"reigns":1,"crest":"🇰🇵"},{"name":"Wales","lat":52.13,"lon":-3.78,"days":379,"matches":13,"reigns":8,"crest":"🏴󠁧󠁢󠁷󠁬󠁳󠁿"},{"name":"Peru","lat":-9.19,"lon":-75.02,"days":378,"matches":22,"reigns":5,"crest":"🇵🇪"},{"name":"Czechoslovakia","lat":49.8,"lon":16.5,"days":351,"matches":14,"reigns":2,"crest":"🇨🇿"},{"name":"Ireland","lat":53.2,"lon":-7.5,"days":342,"matches":6,"reigns":2,"crest":"🇮🇪"},{"name":"Hungary","lat":47.16,"lon":19.5,"days":335,"matches":27,"reigns":7,"crest":"🇭🇺"},{"name":"Switzerland","lat":46.82,"lon":8.23,"days":326,"matches":14,"reigns":7,"crest":"🇨🇭"},{"name":"Bulgaria","lat":42.73,"lon":25.49,"days":285,"matches":9,"reigns":3,"crest":"🇧🇬"},{"name":"Angola","lat":-11.2,"lon":17.87,"days":248,"matches":8,"reigns":1,"crest":"🇦🇴"},{"name":"West Germany","lat":50.5,"lon":9.5,"days":206,"matches":13,"reigns":5,"crest":"🇩🇪"},{"name":"Colombia","lat":4.57,"lon":-74.3,"days":205,"matches":15,"reigns":4,"crest":"🇨🇴"},{"name":"Algeria","lat":28.03,"lon":1.66,"days":200,"matches":6,"reigns":1,"crest":"🇩🇿"},{"name":"Ivory Coast","lat":7.54,"lon":-5.55,"days":199,"matches":6,"reigns":1,"crest":"🇨🇮"},{"name":"Kosovo","lat":42.6,"lon":20.9,"days":199,"matches":6,"reigns":1,"crest":"🇽🇰"},{"name":"Croatia","lat":45.1,"lon":15.2,"days":193,"matches":13,"reigns":2,"crest":"🇭🇷"},{"name":"Czech Republic","lat":49.82,"lon":15.47,"days":174,"matches":9,"reigns":3,"crest":"🇨🇿"},{"name":"Costa Rica","lat":9.75,"lon":-83.75,"days":172,"matches":10,"reigns":2,"crest":"🇨🇷"},{"name":"Romania","lat":45.94,"lon":24.97,"days":166,"matches":10,"reigns":4,"crest":"🇷🇴"},{"name":"Zimbabwe","lat":-19.02,"lon":29.15,"days":161,"matches":9,"reigns":1,"crest":"🇿🇼"},{"name":"Paraguay","lat":-23.44,"lon":-58.44,"days":128,"matches":12,"reigns":3,"crest":"🇵🇾"},{"name":"Portugal","lat":39.4,"lon":-8.22,"days":110,"matches":3,"reigns":2,"crest":"🇵🇹"},{"name":"Turkey","lat":38.96,"lon":35.24,"days":99,"matches":6,"reigns":3,"crest":"🇹🇷"},{"name":"Bolivia","lat":-16.29,"lon":-63.59,"days":87,"matches":8,"reigns":4,"crest":"🇧🇴"},{"name":"Georgia","lat":42.32,"lon":43.36,"days":84,"matches":2,"reigns":1,"crest":"🇬🇪"},{"name":"Republic of Ireland","lat":53.41,"lon":-8.24,"days":82,"matches":5,"reigns":2,"crest":"🇮🇪"},{"name":"Belgium","lat":50.5,"lon":4.47,"days":66,"matches":7,"reigns":4,"crest":"🇧🇪"},{"name":"Yugoslavia","lat":44.0,"lon":20.5,"days":61,"matches":5,"reigns":3,"crest":"🇷🇸"},{"name":"Ecuador","lat":-1.83,"lon":-78.18,"days":56,"matches":3,"reigns":1,"crest":"🇪🇨"},{"name":"Israel","lat":31.05,"lon":34.85,"days":35,"matches":2,"reigns":1,"crest":"🇮🇱"},{"name":"Poland","lat":51.92,"lon":19.15,"days":32,"matches":5,"reigns":2,"crest":"🇵🇱"},{"name":"Denmark","lat":56.26,"lon":9.5,"days":19,"matches":8,"reigns":4,"crest":"🇩🇰"},{"name":"Liberia","lat":6.43,"lon":-9.43,"days":17,"matches":3,"reigns":1,"crest":"🇱🇷"},{"name":"Mexico","lat":23.63,"lon":-102.55,"days":9,"matches":4,"reigns":2,"crest":"🇲🇽"},{"name":"Nigeria","lat":9.08,"lon":8.68,"days":8,"matches":4,"reigns":2,"crest":"🇳🇬"},{"name":"United States","lat":39.0,"lon":-98.0,"days":4,"matches":4,"reigns":3,"crest":"🇺🇸"},{"name":"Northern Ireland","lat":54.79,"lon":-6.49,"days":2,"matches":2,"reigns":2,"crest":"🇬🇧"},{"name":"Australia","lat":-25.27,"lon":133.78,"days":2,"matches":2,"reigns":2,"crest":"🇦🇺"},{"name":"Neth Antilles","lat":12.2,"lon":-69.0,"days":1,"matches":1,"reigns":1,"crest":"🇳🇱"},{"name":"South Korea","lat":36.5,"lon":127.85,"days":1,"matches":1,"reigns":1,"crest":"🇰🇷"},{"name":"Venezuela","lat":6.42,"lon":-66.59,"days":1,"matches":1,"reigns":1,"crest":"🇻🇪"},{"name":"Sierra Leone","lat":8.46,"lon":-11.78,"days":1,"matches":1,"reigns":1,"crest":"🇸🇱"}]